SOLD DATE,PROPERTY TYPE,ADDRESS,CITY,STATE OR PROVINCE,ZIP OR POSTAL CODE,PRICE,BEDS,BATHS,LOCATION,SQUARE FEET,LOT SIZE,YEAR BUILT,$/SQUARE FEET,LATITUDE,LONGITUDE
April-10-2024,Single Family Residential,6818 Hallard Ct,Frederick,MD,21703,510000,4,3,KINGSBROOK,1859,8922,2000,274,39.3849229,-77.4309814
April-10-2024,Single Family Residential,1131 Young Pl,Frederick,MD,21702,375000,3,2,COLLEGE ESTATES,1806,7192,1969,208,39.4352697,-77.4165463
April-11-2024,Single Family Residential,6131 Cornwall Ter,Frederick,MD,21701,650000,4,2.5,SPRING RIDGE,2420,11777,1990,269,39.403307,-77.3494915
April-12-2024,Single Family Residential,2724 Hillfield Dr,Frederick,MD,21702,907330,5,3.5,KELLERTON,5247,10500,2024,173,39.461919,-77.455764
April-12-2024,Single Family Residential,7050 Catalpa Rd,Frederick,MD,21703,440000,2,2,CRESTWOOD VILLAGE,1581,6930,1983,278,39.3864565,-77.4257894
April-15-2024,Single Family Residential,606 Lee Pl,Frederick,MD,21702,415000,,,Frederick,1146,10000,1945,362,39.4315671,-77.426336
April-15-2024,Single Family Residential,6254 Darlington Ct,Frederick,MD,21703,590000,4,2.5,BALLENGER CREEK,2054,10603,1992,287,39.3868581,-77.450051
April-15-2024,Single Family Residential,2007 Burnside Dr,Frederick,MD,21702,550000,4,3,WILLOW BROOK,2174,9221,1995,253,39.4671673,-77.4131693
April-16-2024,Single Family Residential,1001 Olympia St,Frederick,MD,21702,573615,3,2,Frederick,1723,8000,,333,39.47692199,-77.40806309
April-16-2024,Single Family Residential,6457 Bannister Ct,Frederick,MD,21701,845000,4,3.5,SPRING RIDGE,4021,10929,2000,210,39.4097387,-77.3323114
April-17-2024,Single Family Residential,24 W 12th St,Frederick,MD,21701,584000,4,2.5,Frederick,1658,6400,1940,352,39.4295481,-77.4091738
April-2-2024,Single Family Residential,9986 Harvest Dr,Frederick,MD,21702,360000,3,2,CRESTVIEW ESTATES,1104,14810,1986,326,39.5060672,-77.4346527
April-2-2024,Single Family Residential,3904 Braveheart Cir,Frederick,MD,21704,777500,4,2.5,URBANA HIGHLANDS,3381,4875,2005,230,39.3404234,-77.3286406
April-22-2024,Single Family Residential,2753 Hillfield Dr,Frederick,MD,21702,941805,6,4.5,KELLERTON,5603,9742,2024,168,39.461113,-77.455403
April-22-2024,Single Family Residential,2432 Cobblestone Way,Frederick,MD,21702,648000,4,3,WHITTIER,3626,18886,1994,179,39.452644,-77.4518135
April-24-2024,Single Family Residential,421 Lee Pl,Frederick,MD,21702,320000,3,1,VILLA ESTATES,840,10350,1950,381,39.4294759,-77.4295978
April-26-2024,Single Family Residential,5317 Kingsbrook Dr,Frederick,MD,21703,635000,4,3.5,KINGSBROOK,3055,7891,1993,208,39.3807593,-77.425586
April-26-2024,Single Family Residential,505 Pearl St,Frederick,MD,21701,317000,3,1,Frederick,864,6120,1959,367,39.4063906,-77.4264148
April-26-2024,Single Family Residential,803 Foundry St,Frederick,MD,21701,788990,5,5,RENN QUARTER,3979,5922,2024,198,39.419977,-77.389705
April-29-2024,Single Family Residential,8801 Jug Bridge Pl,Frederick,MD,21701,988120,5,4.5,Frederick,4103,6486,2024,241,39.397445,-77.3602779
April-29-2024,Single Family Residential,2461 5 Shillings Rd,Frederick,MD,21701,450000,2,2,WORMANS MILL,2014,4610,1993,223,39.4525287,-77.3861428
April-29-2024,Single Family Residential,279 Wyngate Dr,Frederick,MD,21701,445000,4,3,WYNGATE,2724,13090,1965,163,39.4103742,-77.4303789
April-30-2024,Single Family Residential,1907 Culebra Ct,Frederick,MD,21702,675000,5,4,CLOVER RIDGE,3370,11305,2013,200,39.46224,-77.4213911
April-30-2024,Single Family Residential,6418 Jefferson Blvd,Frederick,MD,21703,615000,4,2.5,Frederick,2540,13503,1989,242,39.4101301,-77.5076968
April-3-2024,Single Family Residential,904 Holden Rd,Frederick,MD,21701,780000,5,4.5,EASTCHURCH,3660,7200,2019,213,39.4234224,-77.3965807
April-4-2024,Single Family Residential,5815 Butterfly Ln,Frederick,MD,21703,425000,3,2,Frederick,1806,20000,1955,235,39.4110485,-77.4636988
April-5-2024,Single Family Residential,600 E Patrick St,Frederick,MD,21701,560000,4,2,Frederick,1728,7745,1913,324,39.4117152,-77.3971027
April-5-2024,Single Family Residential,7230 Bowers Rd,Frederick,MD,21702,330000,3,2,Frederick,1884,55321,1956,175,39.4320834,-77.4659203
April-5-2024,Single Family Residential,2124 Infantry Dr,Frederick,MD,21702,660000,4,3.5,CANNON BLUFF,3468,6700,2008,190,39.4700497,-77.4402015
April-5-2024,Single Family Residential,1471 Eden Dr,Frederick,MD,21701,385000,3,2.5,FREDERICKTOWNE VILLAGE,1560,6000,1980,247,39.4336982,-77.3911441
April-8-2024,Single Family Residential,6809 Hallard Ct,Frederick,MD,21703,615000,4,3.5,KINGSBROOK,3074,9922,2000,200,39.3842481,-77.4314202
April-8-2024,Single Family Residential,9724 Wyndham Dr,Frederick,MD,21704,800000,4,2.5,VILLAGES OF URBANA,2391,8055,2010,335,39.3426001,-77.3255861
April-9-2024,Single Family Residential,97 Vicksburg Ct,Frederick,MD,21702,560000,4,3,WILLOW BROOK,2178,9365,1995,257,39.4677168,-77.4133069
April-9-2024,Single Family Residential,510 Fairview Ave,Frederick,MD,21701,460000,2,1,ROSEDALE,943,6250,1940,488,39.4240433,-77.4218874
August-12-2024,Single Family Residential,9003 Bush Creek Cir,Frederick,MD,21704,950000,4,3.5,VILLAGES OF URBANA,4092,12071,2002,232,39.3383676,-77.3525927
August-12-2024,Single Family Residential,6442 Spring Forest Rd,Frederick,MD,21701,785000,5,3.5,SPRING RIDGE,4384,12746,1998,179,39.411203,-77.334664
August-13-2024,Single Family Residential,6426 Madigan Trl,Frederick,MD,21703,620000,4,2.5,LINTON AT BALLENGER,2914,8455,2017,213,39.366292,-77.449039
August-13-2024,Single Family Residential,5514 Bootjack Dr,Frederick,MD,21702,765000,4,3.5,MOUNTAIN LAUREL ESTATES,3504,71874,1987,218,39.4799181,-77.4783581
August-13-2024,Single Family Residential,902 Twin Oak Ct,Frederick,MD,21701,495000,4,3,FREDERICKTOWNE VILLAGE,2348,6713,1993,211,39.4340141,-77.385975
August-13-2024,Single Family Residential,6436 Dresden Pl,Frederick,MD,21701,1023000,5,4.5,WOODS AT SPRING RIDGE,3603,16965,2019,284,39.4118445,-77.3334806
August-14-2024,Single Family Residential,7990 Pleasant Ct,Frederick,MD,21701,420000,2,1.5,VIEW MORE HEIGHTS,768,40075,1981,547,39.4509474,-77.3083091
August-15-2024,Single Family Residential,368 Crown Point Dr,Frederick,MD,21702,617845,3,3,Frederick,2584,8000,2024,239,39.4780355,-77.4075094
August-15-2024,Single Family Residential,5015 Woodhirst Dr,Frederick,MD,21703,765000,5,3.5,BRENTWOOD,4200,74488,1988,182,39.379054,-77.493256
August-16-2024,Single Family Residential,9033 Clendenin Way,Frederick,MD,21704,935000,4,3.5,VILLAGES OF URBANA,3830,10448,2001,244,39.3348418,-77.3536714
August-16-2024,Single Family Residential,4648 Old Swimming Pool Rd,Braddock Heights,MD,21714,775000,4,3.5,Braddock Heights,4732,40060,2002,164,39.415882,-77.50212
August-16-2024,Single Family Residential,614 N Bentz St N,Frederick,MD,21701,715000,3,4,DOWNTOWN FREDERICK,3392,3225,2015,211,39.4220298,-77.4117495
August-16-2024,Single Family Residential,2375 Bear Den Rd,Frederick,MD,21701,510000,3,2,WORMANS MILL,1570,3848,1996,325,39.4530634,-77.3840103
August-19-2024,Single Family Residential,2408 Steepleview Ct,Frederick,MD,21702,632000,5,4,WHITTIER,3727,14146,1998,170,39.4527289,-77.4566398
August-20-2024,Single Family Residential,1339 Mulberry Ct,Frederick,MD,21703,549900,4,3.5,Frederick,2716,9430,1984,202,39.4143747,-77.4549621
August-2-2024,Single Family Residential,3804 Shetland Ct,Frederick,MD,21704,1100000,4,3.5,URBANA HIGHLANDS,5654,10820,2002,195,39.339324,-77.3311791
August-2-2024,Single Family Residential,5508 Corral Ln,Frederick,MD,21703,700000,4,2.5,HILLSIDE ESTATES,3360,51401,1983,208,39.386479,-77.4923325
August-2-2024,Single Family Residential,204 Grove Blvd,Frederick,MD,21701,1001000,4,3,BAKER PARK,3417,9000,1940,293,39.4194515,-77.4246279
August-2-2024,Single Family Residential,8930 Indian Springs Rd,Frederick,MD,21702,725000,4,2.5,Frederick,2650,54886,1999,274,39.4804235,-77.4635115
August-22-2024,Single Family Residential,201 Crestview Ct,Frederick,MD,21702,650405,3,3,ROCK CREEK ESTATES,3772,13376,1965,172,39.4243374,-77.4353941
August-22-2024,Single Family Residential,9129 Charterhouse Rd,Frederick,MD,21704,1150000,5,4.5,VILLAGES OF URBANA,5938,14046,2004,194,39.3410367,-77.3443854
August-23-2024,Single Family Residential,2428 Cobblestone Way,Frederick,MD,21702,710000,4,3.5,WHITTIER,3516,18755,1994,202,39.4519613,-77.451799
August-23-2024,Single Family Residential,1701 Wheyfield Dr,Frederick,MD,21701,682000,5,4.5,DEARBOUGHT,4683,7627,2004,146,39.450208,-77.37166
August-23-2024,Single Family Residential,303 Canberra Ct,Frederick,MD,21701,337000,3,1,CARROLLTON,925,10296,1960,364,39.4071275,-77.4194374
August-23-2024,Single Family Residential,7041 Catalpa Rd,Frederick,MD,21703,515000,2,2,CRESTWOOD VILLAGE,1864,8897,1982,276,39.3867342,-77.4261916
August-26-2024,Single Family Residential,821 Apache Ct,Frederick,MD,21701,455000,3,2,MONOCACY CROSSING,1614,7500,1995,282,39.4239861,-77.3978202
August-28-2024,Single Family Residential,113 Wheeler Ln,Frederick,MD,21702,630000,4,3.5,CLOVER RIDGE,2952,9734,2008,213,39.4633967,-77.4193492
August-29-2024,Single Family Residential,5303 Coronet Ct,Frederick,MD,21703,602000,4,2.5,KINGSBROOK,2225,8543,1995,271,39.3827861,-77.4262332
August-29-2024,Single Family Residential,536 Wilson Pl,Frederick,MD,21702,800000,5,3.5,Frederick,3499,22000,1937,229,39.4295249,-77.4265613
August-30-2024,Single Family Residential,2107 Rocky Gorge Ct,Frederick,MD,21702,625000,4,3.5,WALNUT RIDGE,3808,10018,2001,164,39.4416633,-77.4450452
August-30-2024,Single Family Residential,7913 Wit Mere Ct,Frederick,MD,21702,485000,3,2,SUNNY ACRES,1807,20038,1966,268,39.4510238,-77.4654691
August-6-2024,Single Family Residential,7804 Horseshoe Ct,Frederick,MD,21701,525000,3,2.5,HORSE SHOE FARM ESTATES,1732,51836,1984,303,39.4483723,-77.2863839
August-9-2024,Single Family Residential,8051 Old Receiver Rd,Frederick,MD,21702,588000,3,2.5,Frederick,2347,64033,2004,251,39.4521766,-77.4607048
August-9-2024,Single Family Residential,5116 Continental Dr,Frederick,MD,21703,753800,5,3.5,WESTVIEW SOUTH,3738,4410,2018,202,39.37249,-77.41918
August-9-2024,Single Family Residential,5600 Boone Ave,Frederick,MD,21704,680000,3,3,Frederick,2342,95832,1994,290,39.3853344,-77.3438353
December-10-2024,Single Family Residential,1271 Backbone Way,Frederick,MD,21702,666100,4,3.5,SYCAMORE RIDGE,2423,,2024,275,39.4407229,-77.4594605
December-12-2024,Single Family Residential,10099 Quail Knob Ln,Frederick,MD,21702,358700,4,2,CRESTVIEW ESTATES,1502,15246,1974,239,39.5091017,-77.4331324
December-16-2024,Single Family Residential,5435 Feagaville Ln,Frederick,MD,21703,451000,4,2,Frederick,1734,59242,1963,260,39.3828598,-77.4719043
December-2-2024,Single Family Residential,5320 Ivywood Dr N,Frederick,MD,21703,590000,4,2.5,BALLENGER CROSSING,2146,8346,1998,275,39.3844808,-77.4341188
December-30-2024,Single Family Residential,7916 River Run Ct,Frederick,MD,21701,587500,4,2.5,WATERSIDE,2724,11705,1985,216,39.4531027,-77.381616
December-30-2024,Single Family Residential,1803 Willow Creek Ct,Frederick,MD,21702,450000,4,2,AMBER MEADOWS,1933,7846,1980,233,39.4529389,-77.4061597
December-4-2024,Single Family Residential,5 E 15th St,Frederick,MD,21701,625000,3,3,Frederick,2303,8750,1930,271,39.432607,-77.4037918
December-5-2024,Single Family Residential,109 Wheeler Ln,Frederick,MD,21702,550000,6,3.5,CLOVER RIDGE,3871,8916,2006,142,39.4637282,-77.4195672
December-9-2024,Single Family Residential,6539 Ballenger Run Blvd,Frederick,MD,21703,615000,3,3.5,BALLENGER RUN,2782,4200,2018,221,39.378779,-77.44046
December-9-2024,Single Family Residential,3925 Addison Woods Rd,Frederick,MD,21704,850000,4,4.5,VILLAGES OF URBANA,3409,4920,2007,249,39.3367985,-77.3379693
February-13-2025,Single Family Residential,8701-A Yellow Springs Rd,Frederick,MD,21702,420000,4,2.5,Frederick,2220,31799,1915,189,39.4729449,-77.4528748
February-14-2025,Single Family Residential,1407 Pedigree St,Frederick,MD,21702,650000,3,3,KELLERTON,2380,9100,2018,273,39.462275,-77.442945
February-20-2025,Single Family Residential,312 N College Pkwy,Frederick,MD,21701,1300000,5,3.5,BAKER PARK,2699,7500,1930,482,39.4194008,-77.4189876
February-21-2025,Single Family Residential,162 Midsummer Dr,Frederick,MD,21702,658500,4,3.5,NORTH CROSSING,3236,10661,1998,203,39.4606149,-77.4111379
February-21-2025,Single Family Residential,583 Hillcrest Dr,Frederick,MD,21703,440000,4,3.5,HILLCREST ORCHARDS,2480,8271,1979,177,39.4124746,-77.4603703
February-26-2025,Single Family Residential,5080 Reigate Ct,Frederick,MD,21703,625000,3,2.5,WELLINGTON TRACE,2744,11130,2001,228,39.3710322,-77.4379681
February-26-2025,Single Family Residential,2772 Lynn St,Frederick,MD,21704,515000,3,2.5,SUGARLOAF ESTATES,1770,50530,1968,291,39.3058013,-77.3853223
February-26-2025,Single Family Residential,5700 Haycock Ct,Frederick,MD,21704,810000,5,3.5,WINDING RIDGE,4014,11881,2001,202,39.3908228,-77.3385225
February-27-2025,Single Family Residential,5811 Meadow Dr,Frederick,MD,21702,445000,4,2.5,Frederick,2360,21875,1968,189,39.4409647,-77.4640416
February-28-2025,Single Family Residential,10407 Pleasant Vista Dr,Frederick,MD,21701,660000,4,2.5,Frederick,2238,114998,1987,295,39.4535044,-77.3008721
February-28-2025,Single Family Residential,3339 Stone Barn Dr,Frederick,MD,21704,850000,4,3.5,VILLAGES OF URBANA,2584,4645,2021,329,39.328107,-77.3643961
February-28-2025,Single Family Residential,9724 Fleetwood Way,Frederick,MD,21701,582000,4,3.5,SPRING RIDGE,1796,5297,2001,324,39.4082625,-77.3332656
February-28-2025,Single Family Residential,308 Redwood Ave,Frederick,MD,21701,381000,2,1,CARROLLTON,1410,6450,1952,270,39.4069583,-77.4238493
February-28-2025,Single Family Residential,1322 Hillcrest Dr,Frederick,MD,21703,410000,3,2,HILLCREST ORCHARDS,1529,7500,1983,268,39.4130357,-77.4554376
January-10-2025,Single Family Residential,6637 Jefferson Blvd,Frederick,MD,21703,485000,4,2.5,BRADDOCK HEIGHTS,1564,13200,1930,310,39.4151789,-77.5061748
January-10-2025,Single Family Residential,208 Thames Dr,Frederick,MD,21702,415000,3,2,WILLOWCREST,1432,6180,1986,290,39.4270569,-77.4458039
January-15-2025,Single Family Residential,3487 Urbana Pike,Frederick,MD,21704,783000,3,3.5,VILLAGES OF URBANA,3360,7321,2015,233,39.3262477,-77.3511736
January-16-2025,Single Family Residential,1020 Storrington Dr,Frederick,MD,21702,579900,4,2.5,MILL CROSSING,2280,14765,2008,254,39.4261941,-77.4388216
January-17-2025,Single Family Residential,2124 Battery Ln,Frederick,MD,21702,625000,5,2.5,CANNON BLUFF,3540,8337,2013,177,39.467141,-77.4437842
January-17-2025,Single Family Residential,6212 Derby Dr,Frederick,MD,21703,467500,4,2.5,BALLENGER CREEK MEADOWS,2482,6300,1989,188,39.3893195,-77.4492152
January-17-2025,Single Family Residential,456 Carrollton Dr,Frederick,MD,21701,385000,3,2,CARROLLTON,1772,8400,1960,217,39.4072025,-77.4219835
January-22-2025,Single Family Residential,9305 Granite Cir,Frederick,MD,21702,373500,4,3,WHITE ROCK,1650,10080,1957,226,39.4889741,-77.4565001
January-24-2025,Single Family Residential,1010 Saxton Dr,Frederick,MD,21702,642000,4,2.5,TUSCARORA CREEK,3528,7200,2018,182,39.471035,-77.434434
January-27-2025,Single Family Residential,2426 Longfellow Ct,Frederick,MD,21702,710000,4,3.5,Frederick,3940,21723,2008,180,39.4601574,-77.4553103
January-28-2025,Single Family Residential,7810 Jackson Mountain Dr,Frederick,MD,21702,1117000,5,4.5,Frederick,3976,218236,2024,281,39.44637,-77.4863495
January-30-2025,Single Family Residential,1387 Fox Run Ct,Frederick,MD,21703,555000,4,2.5,HILCREST ORCHARDS,2840,7528,1978,195,39.411105,-77.4592841
January-31-2025,Single Family Residential,6868 Snowberry Ct,Frederick,MD,21703,445000,2,2,CRESTWOOD VILLAGE,1297,8176,1990,343,39.3858673,-77.4309212
January-31-2025,Single Family Residential,403 Delaware Rd,Frederick,MD,21701,430000,3,2,MONOCACY VILLAGE,2081,8307,1958,207,39.4283571,-77.4006572
January-31-2025,Single Family Residential,250 Wyngate Dr,Frederick,MD,21701,441600,4,2.5,Frederick,2366,15950,1967,187,39.4101803,-77.4311839
January-7-2025,Single Family Residential,6205 Manor Woods Rd,Frederick,MD,21703,330000,2,2,Frederick,858,86249,2002,385,39.3299743,-77.4524184
January-9-2025,Single Family Residential,6391 Devonshire Ln,Frederick,MD,21703,505000,4,2.5,BALLENGER CREEK,1761,5904,1988,287,39.3883902,-77.4454494
July-11-2024,Single Family Residential,2100 Walnut Ridge Ct,Frederick,MD,21702,607250,4,3.5,WALNUT RIDGE,3102,9965,2002,196,39.4442142,-77.4435261
July-1-2024,Single Family Residential,8007 Glendale Ct,Frederick,MD,21702,675000,4,2.5,CLOVER HILL,2800,24829,2001,241,39.4534714,-77.4279342
July-1-2024,Single Family Residential,1802 Black Walnut Ct,Frederick,MD,21701,725000,5,3.5,DEARBOUGHT,4520,19278,1999,160,39.44483,-77.3692813
July-12-2024,Single Family Residential,6411 Fulmer Rd,Frederick,MD,21703,450000,4,2,Frederick,1904,19600,1966,236,39.409354,-77.4980913
July-15-2024,Single Family Residential,5310 Ivywood Dr N,Frederick,MD,21703,589000,4,3,BALLENGER CROSSING,1996,9951,1997,295,39.3842736,-77.4324488
July-17-2024,Single Family Residential,6139 Fieldcrest Dr,Frederick,MD,21701,685000,4,3.5,SPRING RIDGE,3228,15600,1992,212,39.403959,-77.3563448
July-18-2024,Single Family Residential,5 Peters Ln,Frederick,MD,21701,525000,5,3,Frederick,2520,8700,1968,208,39.4304505,-77.4045726
July-19-2024,Single Family Residential,8003 Gambrill Park Rd,Frederick,MD,21702,300000,2,1,GAMBRILL PARK,1538,16422,1964,195,39.4536935,-77.4946368
July-19-2024,Single Family Residential,8029 Stone Ridge Dr,Frederick,MD,21702,722000,4,3.5,CLOVER HILL,3877,25711,1988,186,39.4538727,-77.4348499
July-2-2024,Single Family Residential,374 Crown Point Dr,Frederick,MD,21702,571120,3,2,Frederick,1559,8000,,366,39.478,-77.406996
July-2-2024,Single Family Residential,114 E 7th St,Frederick,MD,21701,450000,3,1.5,DOWNTOWN FREDERICK,1304,4830,1928,345,39.4224517,-77.4071219
July-2-2024,Single Family Residential,2210 Campbell Hill Way,Frederick,MD,21702,699990,4,3.5,SYCAMORE RIDGE,2423,,2024,289,39.4406584,-77.4593362
July-22-2024,Single Family Residential,7151 Linganore Rd,Frederick,MD,21701,830000,4,4,Frederick,4012,98445,2019,207,39.4304422,-77.3376556
July-22-2024,Single Family Residential,1727 Dogwood Dr,Frederick,MD,21701,365000,3,1,FREDERICKTOWNE VILLAGE,1008,5672,1983,362,39.4351917,-77.3972123
July-22-2024,Single Family Residential,205 Lake Coventry Dr,Frederick,MD,21702,470000,4,3,COVENTRY,1968,6000,1997,239,39.4263145,-77.4526264
July-22-2024,Single Family Residential,1207 N Market St,Frederick,MD,21701,879000,5,3.5,DOWNTOWN FREDERICK,3260,17273,1949,270,39.4299864,-77.4066514
July-22-2024,Single Family Residential,8089 Fingerboard Rd,Frederick,MD,21704,865000,3,4,Frederick,3664,140699,2007,236,39.3311522,-77.3872235
July-23-2024,Single Family Residential,1611 Trotter St,Frederick,MD,21702,625000,3,3.5,KELLERTON,3342,5060,2019,187,39.4617511,-77.4407043
July-23-2024,Single Family Residential,732 Bond St,Frederick,MD,21701,711145,5,5,RENN QUARTER,3213,4000,2024,221,39.4204062,-77.3898831
July-23-2024,Single Family Residential,902 Red Cedar Ct,Frederick,MD,21701,486000,3,3,FREDERICKTOWNE VILLAGE,1675,12287,1992,290,39.4336081,-77.3869032
July-25-2024,Single Family Residential,718 Bond St,Frederick,MD,21701,720346,5,5,RENN QUARTER,3213,4000,2024,224,39.4197012,-77.391487
July-26-2024,Single Family Residential,5727 Butterfly Ln,Frederick,MD,21703,450000,4,2,Frederick,2351,20000,1965,191,39.4124771,-77.4678444
July-26-2024,Single Family Residential,8412 Williams Dr,Frederick,MD,21704,525500,3,2,SUGARLOAF ESTATES,2016,27878,1968,261,39.311963,-77.3743052
July-28-2024,Single Family Residential,2208 Campbell Hill Way,Frederick,MD,21702,724990,4,3.5,SYCAMORE RIDGE,2718,,2024,267,39.440261,-77.4581369
July-29-2024,Single Family Residential,2213 Campbell Hill Way,Frederick,MD,21702,754990,5,4,SYCAMORE RIDGE,2718,,2024,278,39.440818,-77.458434
July-29-2024,Single Family Residential,377 Crown Point Dr,Frederick,MD,21702,659240,3,2,Frederick,1559,8000,,423,39.478558,-77.407308
July-29-2024,Single Family Residential,4962 Farringdon Ct,Frederick,MD,21703,565000,4,3.5,WELLINGTON TRACE,2410,12402,1999,234,39.3731364,-77.4413226
July-30-2024,Single Family Residential,2746 Scarecrow Ter,Frederick,MD,21702,1097100,5,4.5,KELLERTON,4565,19321,2024,240,39.4606,-77.456579
July-31-2024,Single Family Residential,1106 Furgeson Ln,Frederick,MD,21702,640000,4,3.5,GAMBRILL VIEW,3072,4950,2021,208,39.427764,-77.45541
July-31-2024,Single Family Residential,2509 Rocky Pointe Ct,Frederick,MD,21702,655000,5,3.5,ROCKY POINTE,4001,9165,2010,164,39.4488119,-77.4525294
July-3-2024,Single Family Residential,409 Braddock Ave,Frederick,MD,21701,372000,3,1,Frederick,850,11625,1955,438,39.409303,-77.4303075
July-3-2024,Single Family Residential,448 Carrollton Dr,Frederick,MD,21701,370000,3,1.5,Frederick,1073,6405,1959,345,39.4077768,-77.4214352
July-8-2024,Single Family Residential,9401 Penrose St,Frederick,MD,21704,875000,4,2.5,VILLAGES OF URBANA,3318,8751,2005,264,39.3396847,-77.3387912
June-10-2024,Single Family Residential,2202 Campbell Hill Way,Frederick,MD,21702,679990,4,3.5,SYCAMORE RIDGE,2423,,2024,281,39.4400014,-77.4575224
June-10-2024,Single Family Residential,381 Crown Point Dr,Frederick,MD,21702,617570,3,2,Frederick,1723,8000,,358,39.478398,-77.407656
June-11-2024,Single Family Residential,503 Magnolia Ave,Frederick,MD,21701,628000,3,1,HOOD COLLEGE,1515,6250,1940,415,39.4233233,-77.4220443
June-11-2024,Single Family Residential,5835 Shepherd Dr,Frederick,MD,21704,675000,4,2.5,HOLLY RIDGE,2934,7201,2018,230,39.395594,-77.3514485
June-12-2024,Single Family Residential,181 Greenway Dr,Frederick,MD,21702,370000,3,2.5,WILLOWCREST,1848,8327,1983,200,39.4250068,-77.4468236
June-12-2024,Single Family Residential,8623 Pinecliff Dr,Frederick,MD,21704,700000,3,2.5,Frederick,2246,21340,1965,312,39.3949806,-77.3657679
June-12-2024,Single Family Residential,5905 Char Leigh Cir,Frederick,MD,21703,707000,4,3.5,WEST FREDERICK HEIGHTS,2952,46609,1979,239,39.3547067,-77.4615858
June-13-2024,Single Family Residential,7813 Rocky Springs Rd,Frederick,MD,21702,475000,3,2,Frederick,1501,34267,1987,316,39.4498974,-77.453323
June-14-2024,Single Family Residential,7996 Pleasant Ct,Frederick,MD,21701,595900,3,3,VIEW MORE HEIGHTS,2480,40075,1983,240,39.4519846,-77.3079372
June-17-2024,Single Family Residential,1021 Cheryls Ct,Frederick,MD,21703,452000,4,3,WEST LINDEN HILLS,1940,7060,1992,233,39.4151577,-77.4413543
June-17-2024,Single Family Residential,356 Carroll Walk Ave,Frederick,MD,21701,800962,5,5,RENN QUARTER,3979,5922,2024,201,39.41475,-77.419763
June-20-2024,Single Family Residential,4903 Caverness Ct,Frederick,MD,21703,650000,5,2.5,WELLINGTON TRACE,3176,12798,1999,205,39.3711398,-77.4425718
June-20-2024,Single Family Residential,6813 Wittenburg Dr,Frederick,MD,21702,840000,6,2.5,WITTINBURG,3936,88427,1995,213,39.4739122,-77.4355061
June-21-2024,Single Family Residential,8226 Glendale Dr,Frederick,MD,21702,580000,3,3,CLOVER HILL,3071,21344,1973,189,39.4581326,-77.4252325
June-21-2024,Single Family Residential,5119 Maitland Ter,Frederick,MD,21703,711000,4,3.5,POPLAR RIDGE,3656,43996,2012,194,39.4111453,-77.4907431
June-21-2024,Single Family Residential,1745 Algonquin Rd,Frederick,MD,21701,667553,5,3.5,DEARBOUGHT,3413,7203,1997,196,39.4488637,-77.3709584
June-2-2024,Single Family Residential,734 Bond St,Frederick,MD,21701,699346,5,5,RENN QUARTER,3213,4000,2024,218,39.42042,-77.389696
June-24-2024,Single Family Residential,9210 Charterhouse Rd,Frederick,MD,21704,955000,5,3.5,VILLAGES OF URBANA,5274,8824,2004,181,39.3409125,-77.3418023
June-25-2024,Single Family Residential,104 Pennsylvania Ave,Frederick,MD,21701,350000,3,1,Frederick,1562,6000,1920,224,39.4107737,-77.3978303
June-26-2024,Single Family Residential,6004 Duvalls Frst,Frederick,MD,21701,1081465,5,4.5,Frederick,3826,6988,2024,283,39.398102,-77.359922
June-26-2024,Single Family Residential,244 Bishops Glen Dr,Frederick,MD,21702,515000,3,3,LAKE COVENTRY,1507,7365,2002,342,39.4279457,-77.4543987
June-28-2024,Single Family Residential,1320 Boundry Peak Ter,Frederick,MD,21702,730115,6,4,SYCAMORE RIDGE,3385,6969,2024,216,39.409442,-77.418993
June-28-2024,Single Family Residential,2776 Hillfield Dr,Frederick,MD,21702,1177837,5,5,KELLERTON,5082,14043,2024,232,39.4609949,-77.452619
June-28-2024,Single Family Residential,216 Lindbergh Ave,Frederick,MD,21701,1250000,3,2.5,BAKER PARK,2912,6300,1936,429,39.4196006,-77.423364
June-28-2024,Single Family Residential,1507 Trotter Pl,Frederick,MD,21702,720000,5,4,KELLERTON,3800,9295,2019,189,39.461896,-77.44268
June-28-2024,Single Family Residential,6009 Keyser Ln,Frederick,MD,21702,375000,3,1,Frederick,1901,27878,1962,197,39.4795781,-77.4581283
June-28-2024,Single Family Residential,514 Military Rd,Frederick,MD,21702,395000,3,1,Frederick,1221,9877,1953,324,39.4308288,-77.4288877
June-28-2024,Single Family Residential,5833 Woodwinds Cir,Frederick,MD,21703,660000,4,2.5,WEST FREDERICK HEIGHTS,2525,42819,1981,261,39.3555772,-77.4625974
June-3-2024,Single Family Residential,484 Carrollton Dr,Frederick,MD,21701,300000,3,1,Frederick,1369,5850,1963,219,39.3770971,-77.4394843
June-3-2024,Single Family Residential,1606 Norwich Dr,Frederick,MD,21701,485000,3,3.5,FREDERICKTOWNE VILLAGE,1668,8071,1987,291,39.4357738,-77.3936066
June-6-2024,Single Family Residential,401 Broadway St,Frederick,MD,21701,430000,3,2,Frederick,1240,6500,2010,347,39.4077104,-77.4133495
June-7-2024,Single Family Residential,1715 Trotter St,Frederick,MD,21702,740000,4,2.5,KELLERTON,3888,7800,2020,190,39.463552,-77.439722
June-7-2024,Single Family Residential,6404 Spring Forest Rd,Frederick,MD,21701,670000,4,2.5,SPRING RIDGE,2865,9572,1995,234,39.4105151,-77.3387183
June-7-2024,Single Family Residential,6112 Fieldcrest Dr,Frederick,MD,21701,700000,6,3.5,SPRING RIDGE,3790,16474,1991,185,39.4025813,-77.3532901
June-7-2024,Single Family Residential,4957 Flossie Ave,Frederick,MD,21703,530000,3,2,MT ZION ESTATES,2156,42863,1981,246,39.3894808,-77.4993284
March-11-2025,Single Family Residential,4328 Dover Dr,Frederick,MD,21703,525000,4,3,WINDSOR ESTATES,2318,24393,1974,226,39.353434,-77.473247
March-11-2025,Single Family Residential,8217 Fox Hunt Ln,Frederick,MD,21702,660000,4,2.5,CLOVER HILL III,3560,21440,1993,185,39.4614598,-77.4382059
March-12-2025,Single Family Residential,614 Schley Ave,Frederick,MD,21702,526300,4,3,ROSEDALE,2522,11250,1957,209,39.4287719,-77.4227271
March-14-2025,Single Family Residential,6555 Saxony Ct,Frederick,MD,21701,1250000,5,4.5,WOODS AT SPRING RIDGE,4351,21126,2018,287,39.4133973,-77.3336301
March-14-2025,Single Family Residential,3975 Triton St,Frederick,MD,21704,850000,4,3.5,VILLAGES OF URBANA,3491,7061,2003,243,39.3375897,-77.3457755
March-22-2024,Single Family Residential,5714 Butterfly Ln,Frederick,MD,21703,477500,3,1.5,Frederick,1618,20037,1956,295,39.4134496,-77.4688125
March-22-2024,Single Family Residential,2411 Steepleview Ct,Frederick,MD,21702,465000,6,2.5,WHITTIER POND,2484,18771,1900,187,39.4527262,-77.4576083
March-22-2024,Single Family Residential,1326 Boundary Peak Ter,Frederick,MD,21702,697577,4,2.5,SYCAMORE RIDGE,2735,6851,2024,255,39.4444856,-77.4609444
March-22-2024,Single Family Residential,5523 Jefferson Blvd,Frederick,MD,21703,685000,4,2.5,SKYLINE ESTATES,3189,30927,1977,215,39.3845824,-77.5121275
March-22-2024,Single Family Residential,6795 Singletree Ct,Frederick,MD,21703,460000,3,2.5,FARMBROOK,1600,8748,1985,288,39.3872358,-77.4325933
March-26-2024,Single Family Residential,2666 Brook Valley Rd,Frederick,MD,21701,700000,4,3.5,WORMANS MILL,3937,6443,2002,178,39.4625429,-77.390554
March-27-2024,Single Family Residential,7905 Miles Ln,Walkersville,MD,21793,575000,2,3,PLEASANT OAKS,1666,58370,2019,345,39.4510098,-77.3222016
March-28-2024,Single Family Residential,5261 Blackgum Dr,Frederick,MD,21703,885000,5,4,BALLENGER RUN,4292,8954,2017,206,39.378256,-77.440157
March-28-2024,Single Family Residential,7010 Allington Manor Cir E,Frederick,MD,21703,672000,4,2.5,KINGSBROOK,2815,9424,1995,239,39.3829363,-77.4235832
March-29-2024,Single Family Residential,411 Potting Shed Way,Frederick,MD,21702,598970,3,2,Frederick,2800,,2024,214,39.4765953,-77.4157917
March-29-2024,Single Family Residential,405 Union St,Frederick,MD,21701,845000,5,5,RENN QUARTER,3979,5922,2024,212,39.418538,-77.38623
March-7-2025,Single Family Residential,110 Maroon Ct,Frederick,MD,21702,677500,5,3,CLOVER RIDGE,3696,10576,2010,183,39.4609214,-77.4185383
March-7-2025,Single Family Residential,7913 Mount Pleasant Ct E,Walkersville,MD,21793,510000,3,3,MOUNT PLEASANT EAST,2266,47916,1986,225,39.4506891,-77.3139361
March-7-2025,Single Family Residential,1117 Rocky Springs Rd,Frederick,MD,21702,525000,4,3,Frederick,2746,43560,1975,191,39.4381212,-77.4416871
March-7-2025,Single Family Residential,4317 Dover Dr,Frederick,MD,21703,425000,3,2,WINDSOR ESTATES,1806,27442,1973,235,39.3516577,-77.4732222
March-7-2025,Single Family Residential,2-AA Norva Ave,Frederick,MD,21701,480000,5,3,Frederick,1938,7000,1964,248,39.41385,-77.43097
May-10-2024,Single Family Residential,2700 Hillfield Dr,Frederick,MD,21702,1094835,5,5.5,KELLERTON,5241,10570,2024,209,39.462767,-77.452562
May-10-2024,Single Family Residential,9402 Kinnerton Pl,Frederick,MD,21704,900000,5,3.5,VILLAGES OF URBANA,3120,7712,2006,288,39.3360556,-77.3375758
May-10-2024,Single Family Residential,2408 Hunters Chase Ct,Frederick,MD,21702,625000,4,3.5,WHITTIER,3076,10945,1992,203,39.4533519,-77.4535919
May-1-2024,Single Family Residential,6701 Kings Mill Ct,Frederick,MD,21702,728000,4,3.5,CLOVER HILL III,4398,18253,1997,166,39.4620248,-77.434748
May-1-2024,Single Family Residential,6715 S Clifton Rd,Frederick,MD,21703,822000,4,3.5,HOLTZINGER OVERLOOK,2978,43263,2015,276,39.4174473,-77.4876388
May-1-2024,Single Family Residential,9710 Fleetwood Way,Frederick,MD,21701,525000,4,3.5,SPRING RIDGE,2390,6285,1999,220,39.4081321,-77.3343497
May-13-2024,Single Family Residential,819-B Stratford Way Unit B,Frederick,MD,21701,200000,2,2,FREDERICKTOWNE VILLAGE,,,1989,,39.432298,-77.39042
May-13-2024,Single Family Residential,827 Holden Rd,Frederick,MD,21701,800000,5,3.5,EASTCHURCH,3598,6601,2019,222,39.424288,-77.3954883
May-13-2024,Single Family Residential,310 Boxford Ct,Frederick,MD,21702,425000,4,2.5,Frederick,1920,8677,1985,221,39.4304678,-77.4658276
May-15-2024,Single Family Residential,2109 Cohasset Ct,Frederick,MD,21702,750000,4,2.5,ROCKY SPRINGS RESERVE,3584,9565,2021,209,39.4462314,-77.4554611
May-15-2024,Single Family Residential,5203 Ivywood Dr S,Frederick,MD,21703,645000,4,3,BALLENGER CROSSING,3008,8000,2000,214,39.3826572,-77.4320029
May-16-2024,Single Family Residential,2738 Scarecrow Ter,Frederick,MD,21702,1145416,6,5.5,KELLERTON,5339,10500,2024,215,39.46123,-77.456766
May-16-2024,Single Family Residential,5802 Zoe Ln,Frederick,MD,21704,860000,5,4,Frederick,4370,6969,2020,197,39.3918729,-77.3340212
May-16-2024,Single Family Residential,1750 Wheyfield Dr,Frederick,MD,21701,620000,4,3.5,DEARBOUGHT,3278,7995,1995,189,39.447362,-77.3734677
May-17-2024,Single Family Residential,6620 Cambria Ct,Frederick,MD,21703,740000,5,4.5,MANORS AT BALLENGER CREEK,4306,8540,2015,172,39.3660832,-77.4399977
May-17-2024,Single Family Residential,2623 Bear Den Rd,Frederick,MD,21701,587000,3,2.5,WORMANS MILL,2066,5610,2000,284,39.455038,-77.389681
May-17-2024,Single Family Residential,7905 1/2 Opossumtown Pike,Frederick,MD,21702,443000,3,2,Frederick,1152,,1994,385,39.4512548,-77.4127637
May-17-2024,Single Family Residential,9126-B Bethel Rd,Frederick,MD,21702,390000,3,1.5,Frederick,2106,28750,1969,185,39.4837021,-77.4590409
May-20-2024,Single Family Residential,312 Broadway St,Frederick,MD,21701,295000,3,1,Frederick,925,6250,1958,319,39.4082428,-77.4127713
May-21-2024,Single Family Residential,11033 Liberty Rd,Frederick,MD,21701,725000,3,3.5,Frederick,2520,47916,2007,288,39.468079,-77.277835
May-21-2024,Single Family Residential,131 Fairview Ave,Frederick,MD,21701,800000,5,3,WESTBROOK,3580,22500,1965,223,39.419712,-77.4305124
May-22-2024,Single Family Residential,3825 Bush Creek Dr,Frederick,MD,21704,975000,4,3.5,VILLAGES OF URBANA,4116,9034,2002,237,39.3374354,-77.3535204
May-22-2024,Single Family Residential,1816 Rocky Glen Dr,Frederick,MD,21702,485000,5,3.5,AMBER MEADOWS,1568,7000,1978,309,39.4520314,-77.4092738
May-24-2024,Single Family Residential,754 Dogwood Ct,Frederick,MD,21701,180000,3,2,FREDERICKTOWNE VILLAGE,1264,10342,1982,142,39.4338085,-77.3976169
May-24-2024,Single Family Residential,4 Kline Blvd,Frederick,MD,21701,635000,3,2.5,WESTBROOK,3094,12615,1960,205,39.4152527,-77.4304026
May-24-2024,Single Family Residential,9116 Bowling Green Dr,Frederick,MD,21704,1000000,5,3.5,VILLAGES OF URBANA,5032,9120,2007,199,39.344321,-77.3462177
May-24-2024,Single Family Residential,4520 Araby Church Rd,Frederick,MD,21704,450000,3,2,Frederick,1144,30056,1965,393,39.3576162,-77.385988
May-24-2024,Single Family Residential,5807 Winding Ridge Way,Frederick,MD,21704,630000,3,2.5,WINDING RIDGE,2272,10679,1997,277,39.3939637,-77.337849
May-28-2024,Single Family Residential,918 Motter Ave,Frederick,MD,21701,576000,3,2,Frederick,1512,6500,1935,381,39.4267376,-77.4098376
May-29-2024,Single Family Residential,6912 Greenvale Ct,Frederick,MD,21702,603000,4,2.5,CLOVER HILL,2241,24829,1974,269,39.4614324,-77.423692
May-29-2024,Single Family Residential,6302 Hawkins Ct N,Frederick,MD,21701,740000,5,3.5,SPRING RIDGE,3390,13356,1994,218,39.4078362,-77.337535
May-30-2024,Single Family Residential,111 Wheeler Ln,Frederick,MD,21702,675000,4,3.5,CLOVER RIDGE,3613,9583,2006,187,39.4635631,-77.4194613
May-30-2024,Single Family Residential,1417 Hunting Horn Ln,Frederick,MD,21703,500000,3,3,GOLF VIEW,1760,7057,1989,284,39.41317,-77.4629771
May-31-2024,Single Family Residential,4112 Tabler Rd,Frederick,MD,21704,520000,3,2,URBANA,1536,33541,1958,339,39.3457911,-77.3603907
May-31-2024,Single Family Residential,1808 River Mist Ct,Frederick,MD,21701,635000,5,3,MONOCACY LANDING,2532,8463,1996,251,39.4471103,-77.3782444
May-31-2024,Single Family Residential,2613 Bear Den Rd,Frederick,MD,21701,625000,3,3.5,PARK PLACE AT MILL ISLAND,2988,5610,2000,209,39.4546793,-77.3894042
May-31-2024,Single Family Residential,406 Conundrum Ter,Frederick,MD,21702,677500,3,3,CLOVER RIDGE,3007,11072,2018,225,39.469262,-77.420606
May-31-2024,Single Family Residential,6719 Plantation Rd,Frederick,MD,21701,890000,4,3.5,Frederick,3322,50965,2014,268,39.4191878,-77.3368048
May-3-2024,Single Family Residential,3004 Wasatch View Dr,Frederick,MD,21704,1200000,5,4,Frederick,5616,51836,2018,214,39.3177496,-77.3703209
May-3-2024,Single Family Residential,7311 Brookside Dr,Frederick,MD,21702,475000,4,3,EASTVIEW,2379,30056,1965,200,39.4353913,-77.4705438
May-3-2024,Single Family Residential,10976 Horseshoe Dr,Frederick,MD,21701,606000,3,2.5,HORSE SHOE FARMS ESTATES,2908,79715,1987,208,39.4490028,-77.2885499
May-3-2024,Single Family Residential,6803 Kingfisher Ct,Frederick,MD,21703,600000,4,3.5,Frederick,3276,9727,1990,183,39.3727689,-77.431672
May-6-2024,Single Family Residential,9155 Hinks Ln,Frederick,MD,21704,788000,4,3,VILLAGES OF URBANA,3868,6640,2013,204,39.3279315,-77.352774
May-6-2024,Single Family Residential,905 Young Pl,Frederick,MD,21702,368000,3,1,Frederick,1084,8120,1959,339,39.4347637,-77.4219329
May-6-2024,Single Family Residential,102 Locust St,Frederick,MD,21703,345000,2,1,LINDEN HILLS,1208,6000,1983,286,39.4141375,-77.4376176
May-6-2024,Single Family Residential,9110 John Simmons St,Frederick,MD,21704,915000,4,4.5,VILLAGES OF URBANA,4774,12788,2000,192,39.3320609,-77.3484354
May-7-2024,Single Family Residential,1825 Tuscarora Ct,Frederick,MD,21702,595000,5,2.5,WARFIELD,2160,18401,1998,275,39.4513211,-77.441438
May-9-2024,Single Family Residential,22 Frederick Ave,Frederick,MD,21701,650000,4,2,DOWNTOWN FREDERICK,1850,6250,1950,351,39.4314048,-77.4083039
November-11-2024,Single Family Residential,7069 Catalpa Rd,Frederick,MD,21703,465000,2,2,CRESTWOOD VILLAGE,1874,7644,1981,248,39.385145,-77.4249099
November-1-2024,Single Family Residential,3743 Spicebush Dr,Frederick,MD,21704,1030000,6,4.5,VILLAGES OF URBANA,4688,9240,2003,220,39.338044,-77.3426316
November-13-2024,Single Family Residential,6614 Gooseander Ct,Frederick,MD,21703,616000,4,2.5,ROBIN MEADOWS,3260,10535,1990,189,39.3741183,-77.4366808
November-13-2024,Single Family Residential,6648 Jefferson Blvd,Frederick,MD,21703,379999,4,1.5,BRADDOCK HEIGHTS,1996,11325,1912,190,39.4159742,-77.506559
November-13-2024,Single Family Residential,341 Catoctin Ave,Frederick,MD,21701,340000,3,1,CARROLLTON,1025,8200,1960,332,39.4069321,-77.4223543
November-15-2024,Single Family Residential,1203 Apollo Dr,Frederick,MD,21702,565000,4,2.5,TUSCARORA CREEK,1904,7514,2020,297,39.4680424,-77.4329327
November-15-2024,Single Family Residential,476 Hanson St,Frederick,MD,21701,846962,5,5,RENN QUARTER,3979,5922,2024,213,39.417925,-77.390239
November-15-2024,Single Family Residential,501 Elm St,Frederick,MD,21701,955000,3,3.5,DOWNTOWN FREDERICK,2400,5400,1910,398,39.4208871,-77.4165777
November-15-2024,Single Family Residential,5509 Golden Eagle Rd,Frederick,MD,21704,907000,5,4.5,TALLYN RIDGE,4254,8134,2018,213,39.3848869,-77.3751606
November-18-2024,Single Family Residential,608 Gillespie Dr,Frederick,MD,21702,640000,4,3.5,GAMBRILL VIEW,3792,6032,2019,169,39.428835,-77.4553959
November-18-2024,Single Family Residential,4507 Shaff Ln,Frederick,MD,21703,1625000,5,4.5,Frederick,6790,217800,2004,239,39.3876475,-77.5064093
November-21-2024,Single Family Residential,3809 Shetland Ct,Frederick,MD,21704,950500,5,4.5,URBANA HIGHLANDS,4936,10146,2002,193,39.3397873,-77.330217
November-22-2024,Single Family Residential,107 E 5th St,Frederick,MD,21701,675000,3,2.5,DOWNTOWN FREDERICK,2400,5760,2020,281,39.4203515,-77.407963
November-26-2024,Single Family Residential,5321 Kingsbrook Dr,Frederick,MD,21703,670000,4,3.5,KINGSBROOK,2708,7922,1993,247,39.3811297,-77.4253956
November-26-2024,Single Family Residential,9434 Carriage Hill St,Frederick,MD,21704,810000,5,3.5,VILLAGES OF URBANA,3472,4920,2007,233,39.3379144,-77.3366315
November-27-2024,Single Family Residential,1718 Dogwood Dr,Frederick,MD,21701,450000,4,2,FREDERICKTOWNE VILLAGE,1560,10293,1983,288,39.4344432,-77.3970719
November-4-2024,Single Family Residential,6910 Baron Ct,Frederick,MD,21703,675000,4,3.5,KINGSBROOK,3949,10276,1998,171,39.3833997,-77.4289822
November-7-2024,Single Family Residential,2938 Thurston Rd,Frederick,MD,21704,603000,5,4,Frederick,2236,43560,1976,270,39.3154249,-77.3618546
November-8-2024,Single Family Residential,5200 Maitland Ter,Frederick,MD,21703,833000,3,3.5,Frederick,5135,47045,2013,162,39.4118838,-77.486969
November-8-2024,Single Family Residential,5706 Lakeview Dr,Frederick,MD,21702,435000,3,2,EASTVIEW,2176,18730,1962,200,39.4403262,-77.4721248
October-10-2024,Single Family Residential,9548 Kingston Pl,Frederick,MD,21701,565000,4,2.5,SPRING RIDGE,2308,5537,1999,245,39.407562,-77.3326229
October-10-2024,Single Family Residential,2365 Bear Den Rd,Frederick,MD,21701,512000,3,2,WORMANS MILL,2125,4594,1997,241,39.4536232,-77.3829761
October-1-2024,Single Family Residential,364 Prospect Blvd,Frederick,MD,21701,410000,3,2,CARROLLTON,1392,5108,1980,295,39.4020523,-77.4233759
October-15-2024,Single Family Residential,6 W 14th St W,Frederick,MD,21701,555000,3,2.5,Frederick,2496,8892,1948,222,39.4318787,-77.4064818
October-15-2024,Single Family Residential,626 Apple Ave,Frederick,MD,21701,397000,3,2,Frederick,1692,9625,1957,235,39.4277493,-77.4203851
October-16-2024,Single Family Residential,401 Geronimo Ct,Frederick,MD,21701,510000,3,2,RIVER CREST,1652,12498,2000,309,39.427767,-77.3967019
October-16-2024,Single Family Residential,803 Cromwell Dr,Frederick,MD,21701,478000,3,2,FREDERICKTOWNE VILLAGE,1520,6244,1979,314,39.4335512,-77.3945914
October-16-2024,Single Family Residential,9028 Hamburg Rd,Frederick,MD,21702,541000,3,2.5,Frederick,2314,32670,1972,234,39.4817199,-77.4627215
October-17-2024,Single Family Residential,9110 Belvedere Dr,Frederick,MD,21704,965000,5,4.5,VILLAGES OF URBANA,4988,10115,2009,193,39.3456902,-77.3458799
October-21-2024,Single Family Residential,367 Crown Point Dr,Frederick,MD,21702,583755,3,2,Frederick,1723,8000,2024,339,39.4781658,-77.407605
October-21-2024,Single Family Residential,7031 Ridge Rd,Frederick,MD,21702,545000,4,3,BRADDOCK HEIGHTS,2795,22000,1942,195,39.426943,-77.5027097
October-21-2024,Single Family Residential,6707 Grainary Ct,Frederick,MD,21703,459900,3,2,FARMBROOK,1780,6745,1984,258,39.3862546,-77.4333553
October-21-2024,Single Family Residential,1316 Hillcrest Dr,Frederick,MD,21703,420000,3,2.5,HILLCREST ORCHARDS,1680,7500,1980,250,39.4122579,-77.454931
October-21-2024,Single Family Residential,6581 Whetstone Dr,Frederick,MD,21703,515000,4,2.5,FARMBROOK,2263,6501,1987,228,39.3906039,-77.4387649
October-23-2024,Single Family Residential,1600 Bolton St,Frederick,MD,21702,525000,3,2.5,Frederick,1965,8346,1990,267,39.4280732,-77.4294551
October-24-2024,Single Family Residential,716 Bond St,Frederick,MD,21701,740346,5,5,RENN QUARTER,3213,4000,2024,230,39.419429,-77.391747
October-24-2024,Single Family Residential,1828 N Greenleese Dr N,Frederick,MD,21701,615000,5,3.5,DEARBOUGHT,3444,5106,2004,179,39.4505038,-77.3724818
October-30-2024,Single Family Residential,10403 Pleasant Vista Dr,Frederick,MD,21701,471000,4,3,Frederick,2144,40075,1977,220,39.4543733,-77.3017402
October-30-2024,Single Family Residential,10242 Allview Dr,Frederick,MD,21701,380000,3,2.5,Frederick,1656,53579,1985,229,39.4468842,-77.303642
October-31-2024,Single Family Residential,2361 Bear Den Rd,Frederick,MD,21701,516500,3,2.5,WORMANS MILL,2076,3284,1997,249,39.4538696,-77.3826595
October-7-2024,Single Family Residential,343 Catoctin Ave,Frederick,MD,21701,375000,4,1.5,Frederick,1488,8866,1962,252,39.4067496,-77.422198
October-8-2024,Single Family Residential,903 Mercer Pl,Frederick,MD,21701,800000,4,3,Frederick,3276,8800,1958,244,39.4194571,-77.4294407
September-10-2024,Single Family Residential,1704 Trotter St,Frederick,MD,21702,810000,5,3.5,KELLERTON,4916,9000,2020,165,39.462049,-77.439562
September-13-2024,Single Family Residential,203 Lindbergh Ave,Frederick,MD,21701,830000,4,2,Frederick,2796,7500,1935,297,39.4191291,-77.4245085
September-13-2024,Single Family Residential,5201 Ernie Ln,Frederick,MD,21703,725000,4,3.5,HILLSIDE ESTATES,3123,81022,1986,232,39.3843331,-77.4871919
September-16-2024,Single Family Residential,9070 Harris Pl,Frederick,MD,21704,800000,4,3.5,VILLAGES OF URBANA,3276,5489,2001,244,39.3345978,-77.3578129
September-18-2024,Single Family Residential,23 Fairview Ave,Frederick,MD,21701,622000,3,2,Frederick,2220,19602,1967,280,39.4171411,-77.4329676
September-18-2024,Single Family Residential,1524 Andover Ln,Frederick,MD,21702,425000,3,2,STONEGATE FARMS,1728,7398,1977,246,39.425774,-77.4671799
September-19-2024,Single Family Residential,6536 Alan Linton Blvd E,Frederick,MD,21703,695000,4,3.5,MANORS AT BALLENGER CREEK,2771,9501,2018,251,39.366921,-77.442373
September-19-2024,Single Family Residential,206 Rockwell Ter,Frederick,MD,21701,1075000,5,3.5,BAKER PARK,3792,8000,1910,283,39.4178327,-77.4144251
September-24-2024,Single Family Residential,803 Geronimo Dr,Frederick,MD,21701,475000,3,3,MONOCACY CROSSING,1614,7500,1995,294,39.4246521,-77.39746
September-25-2024,Single Family Residential,921 Shawnee Dr,Frederick,MD,21701,400000,3,1.5,Frederick,1695,9270,1958,236,39.4264827,-77.3981545
September-25-2024,Single Family Residential,4107 Baker Valley Rd,Frederick,MD,21704,650000,4,2.5,Frederick,1568,39116,2000,415,39.3457293,-77.3991128
September-25-2024,Single Family Residential,2511 Owl Roost Ct,Frederick,MD,21702,770000,4,3,KELLERTON,3828,10150,2021,201,39.460396,-77.4474199
September-25-2024,Single Family Residential,4825 Cap Stine Rd,Frederick,MD,21703,695000,6,3.5,WEST FREDERICK HIGHLANDS,3352,140699,1983,207,39.3643183,-77.4708577
September-26-2024,Single Family Residential,633 Grant Pl,Frederick,MD,21702,460000,3,1,DOWNTOWN FREDERICK,1516,9500,1950,303,39.4311895,-77.4234451
September-26-2024,Single Family Residential,6131 Long Branch Rd,Frederick,MD,21701,635000,4,4,Frederick,2864,74923,1965,222,39.4024294,-77.3606474
September-26-2024,Single Family Residential,11317 Rum Spring Rd,Frederick,MD,21702,875000,3,3.5,GAMBRILL MOUNTAIN,2519,125017,2024,347,39.5442652,-77.5055614
September-27-2024,Single Family Residential,9704 Ethan Ridge Ave,Frederick,MD,21704,925000,4,2.5,VILLAGES OF URBANA,3388,10715,2009,273,39.3438264,-77.3280452
September-27-2024,Single Family Residential,3949 Sweet Briar Ct,Frederick,MD,21704,970000,5,4.5,VILLAGES OF URBANA,4360,10922,2003,222,39.3388024,-77.3481679
September-30-2024,Single Family Residential,5355 Ivywood Dr N,Frederick,MD,21703,615000,4,2.5,BALLENGER CROSSING,4190,13986,1997,147,39.3827322,-77.4345385
September-30-2024,Single Family Residential,1213 Schaffer Dr,Frederick,MD,21702,450000,5,3,WILLOWCREST,1710,7102,1987,263,39.4259759,-77.4505888
September-3-2024,Single Family Residential,7005 Edgemont Rd,Frederick,MD,21702,600000,5,4,EDGEMONT OVERLOOK,2893,47480,1870,207,39.4259891,-77.4932701
September-3-2024,Single Family Residential,1201 Schaffer Dr,Frederick,MD,21702,480000,4,3,WILLOWCREST,2340,8993,1987,205,39.4260505,-77.449269
September-3-2024,Single Family Residential,470 Hanson St,Frederick,MD,21701,821990,6,5,RENN QUARTER,4112,9000,2024,200,39.4175947,-77.3897774
September-4-2024,Single Family Residential,8 Davis Ave,Frederick,MD,21701,355000,2,1,Frederick,944,4791,1930,376,39.4092606,-77.3892996
September-6-2024,Single Family Residential,8241 Ball Rd,Frederick,MD,21704,760000,4,2.5,Frederick,2541,119790,2004,299,39.3556371,-77.3741902
September-9-2024,Single Family Residential,9158 Hinks Ln,Frederick,MD,21704,725000,4,2.5,VILLAGES OF URBANA,2294,4677,2010,316,39.3284118,-77.353241
